,City,Latitude,Longitude,Max Temp,Min Temp,Temp,Humidity,Cloudiness,Wind Speed,Country
0,Mar del Plata,-38.0023,-57.5575,27.13,21.6,22.49,86,76,7.15,AR
1,Thompson,55.7435,-97.8558,-14.35,-14.35,-14.35,95,73,2.5,CA
2,Qaanaaq,77.484,-69.3632,-26.19,-26.19,-26.19,93,100,2.23,GL
3,Ancud,-41.8697,-73.8203,15.63,15.63,15.63,82,100,2.09,CL
4,Katherine,-14.4667,132.2667,28.18,28.18,28.18,65,40,4.63,AU
5,Rikitea,-23.1203,-134.9692,25.53,25.53,25.53,73,15,6.36,PF
6,Quebradillas,18.4738,-66.9385,26.09,22.62,24.69,89,22,1.79,PR
7,Tasiilaq,65.6145,-37.6368,-6.91,-6.91,-6.91,66,92,3.76,GL
8,Jamestown,42.097,-79.2353,1.77,-0.59,0.21,61,97,2.68,US
9,Dikson,73.5069,80.5464,-23.13,-23.13,-23.13,97,100,6.16,RU
10,Lidköping,58.5052,13.1577,3.01,3.01,3.01,96,100,4.8,SE
11,Kapaa,22.0752,-159.319,19.99,18.95,18.95,97,4,2.49,US
12,Chokurdakh,70.6333,147.9167,-44.03,-44.03,-44.03,100,98,1.62,RU
13,Vaini,-21.2,-175.2,26.86,26.86,26.86,81,95,7.52,TO
14,Vila Velha,-20.3297,-40.2925,21.86,21.86,21.86,94,100,4.0,BR
15,Cape Town,-33.9258,18.4232,30.06,23.28,24.36,59,2,6.26,ZA
16,Saskylakh,71.9167,114.0833,-41.59,-41.59,-41.59,99,99,1.84,RU
17,Sinnamary,5.3833,-52.95,24.89,24.89,24.89,90,100,5.15,GF
18,Punta Arenas,-53.15,-70.9167,15.06,15.06,15.06,38,67,4.63,CL
19,Katsuura,35.1333,140.3,8.13,8.13,8.13,68,38,1.94,JP
20,Salalah,17.0151,54.0924,24.07,24.07,24.07,63,15,3.08,OM
21,Bethel,41.3712,-73.414,1.63,-1.63,-0.2,89,100,0.0,US
22,Kalmunai,7.4167,81.8167,24.8,24.8,24.8,87,98,4.18,LK
23,Atuona,-9.8,-139.0333,24.89,24.89,24.89,79,30,5.43,PF
24,St. George's,12.0564,-61.7485,24.73,24.73,24.73,87,100,6.62,GD
25,Treinta y Tres,-33.2333,-54.3833,27.5,27.5,27.5,37,0,5.5,UY
26,Tiksi,71.6872,128.8694,-36.01,-36.01,-36.01,100,92,1.78,RU
27,Ilulissat,69.2167,-51.1,-8.99,-8.99,-8.99,73,75,4.63,GL
28,Tilichiki,60.4667,166.1,-28.83,-28.83,-28.83,90,91,4.21,RU
29,Besançon,47.2488,6.0182,13.77,12.3,13.75,64,58,4.77,FR
30,Butaritari,3.0707,172.7902,26.92,26.92,26.92,77,85,6.61,KI
31,Cape Canaveral,28.4058,-80.6048,14.99,8.04,11.75,77,0,3.6,US
32,San-Pédro,4.7485,-6.6363,30.16,30.16,30.16,60,18,4.3,CI
33,Narsaq,60.9167,-46.05,-8.88,-8.88,-8.88,68,100,2.67,GL
34,Mahébourg,-20.4081,57.7,28.47,28.16,28.16,65,75,5.66,MU
35,San Jacinto,33.7839,-116.9586,10.52,5.12,8.47,48,33,1.34,US
36,Aksarka,66.5606,67.7975,-40.2,-40.2,-40.2,100,73,2.61,RU
37,Mataura,-46.1927,168.8643,8.63,8.63,8.63,84,1,2.2,NZ
38,Kirakira,-10.4544,161.9205,27.57,27.57,27.57,81,98,3.91,SB
39,Puerto Ayora,-0.7393,-90.3518,22.53,22.53,22.53,96,11,0.89,EC
40,The Valley,18.217,-63.0578,26.72,25.46,26.45,79,27,9.05,AI
41,Eenhana,-17.4667,16.3333,35.03,35.03,35.03,14,100,2.53,NA
42,Jiazi,22.8779,116.067,17.49,17.49,17.49,58,100,8.21,CN
43,Nikolskoye,59.7035,30.7861,-9.06,-9.06,-9.06,95,42,1.39,RU
44,Lorengau,-2.0226,147.2712,27.51,27.51,27.51,78,100,1.86,PG
45,Lompoc,34.6391,-120.4579,9.77,7.23,7.8,91,100,4.12,US
46,Tabou,4.423,-7.3528,29.84,29.84,29.84,61,18,3.37,CI
47,Klyuchi,52.2667,79.1667,-6.84,-6.84,-6.84,89,81,5.57,RU
48,Nouadhibou,20.931,-17.0347,21.32,21.32,21.32,48,0,5.06,MR
49,Albany,42.6001,-73.9662,3.0,-0.81,1.43,87,100,1.34,US
50,Ushuaia,-54.8,-68.3,13.41,13.41,13.41,51,71,1.61,AR
51,Biswān,27.5,81.0,12.87,12.87,12.87,36,0,3.25,IN
52,Arlit,18.7369,7.3853,28.94,28.94,28.94,12,10,1.7,NE
53,Santa Rosa,14.3122,121.1114,25.99,25.01,25.25,78,33,6.41,PH
54,Lebu,-37.6167,-73.65,16.74,16.74,16.74,76,45,0.77,CL
55,Saint Paul Harbor,57.79,-152.4072,-1.27,-1.27,-1.27,69,0,5.66,US
56,Najrān,17.4924,44.1277,25.21,25.21,25.21,24,2,3.86,SA
57,Ryōtsu-minato,38.0833,138.4333,5.4,5.4,5.4,74,100,3.84,JP
58,Busselton,-33.65,115.3333,16.09,16.09,16.09,74,0,6.26,AU
59,Port Alfred,-33.5906,26.891,24.54,24.54,24.54,61,10,1.34,ZA
60,Tuktoyaktuk,69.4541,-133.0374,-28.93,-28.93,-28.93,99,84,3.45,CA
61,Barrow,71.2906,-156.7887,-22.99,-22.99,-22.99,84,100,7.72,US
62,Pokhara,28.2333,83.9833,13.42,13.42,13.42,24,0,2.85,NP
63,Carnarvon,-24.8667,113.6333,23.79,23.79,23.79,70,0,11.71,AU
64,Kahului,20.8947,-156.47,21.01,21.01,21.01,83,0,5.66,US
65,San Patricio,28.017,-97.5169,21.2,17.91,19.05,96,48,3.53,US
66,Jizan,17.3333,42.6667,29.22,29.22,29.22,50,45,4.99,SA
67,Houma,29.5958,-90.7195,13.33,10.56,12.11,91,0,1.54,US
68,Faya,18.3851,42.4509,14.29,14.29,14.29,67,37,4.21,SA
69,Yankton,42.8711,-97.3973,-19.86,-19.86,-19.86,84,100,1.54,US
70,Nālūt,30.3333,10.85,16.04,16.04,16.04,33,6,4.41,LY
71,Teya,60.3778,92.6267,-27.56,-27.56,-27.56,100,80,1.96,RU
72,Sørland,67.667,12.6934,-1.08,-1.08,-1.08,63,100,8.12,NO
73,Passy,45.9203,6.6877,9.9,8.04,8.05,75,33,1.86,FR
74,Souillac,-20.5167,57.5167,28.21,28.21,28.21,65,75,5.66,MU
75,Hermanus,-34.4187,19.2345,28.22,28.22,28.22,51,5,8.79,ZA
76,Norman Wells,65.282,-126.8329,-25.54,-25.54,-25.54,99,92,0.34,CA
77,Hobart,-42.8794,147.3294,15.92,15.15,15.65,83,20,3.6,AU
78,Lavrentiya,65.5833,-171.0,-18.46,-18.46,-18.46,96,96,1.87,RU
79,Avera,33.194,-82.5271,2.43,-0.97,0.39,73,31,2.61,US
80,New Norfolk,-42.7826,147.0587,15.72,14.95,15.04,67,0,0.62,AU
81,Zambezi,-13.5432,23.1047,26.66,26.66,26.66,61,98,2.58,ZM
82,Pisco,-13.7,-76.2167,20.03,19.45,20.03,88,100,3.09,PE
83,Yellowknife,62.456,-114.3525,-21.19,-21.19,-21.19,100,100,1.54,CA
84,Flinders,-34.5833,150.8552,16.81,15.59,16.03,83,81,3.29,AU
85,Castro,-24.7911,-50.0119,18.34,18.34,18.34,66,2,5.06,BR
86,Lubango,-14.9172,13.4925,21.77,21.77,21.77,64,99,1.87,AO
87,Teruel,40.6667,-0.6667,8.76,8.76,8.76,36,32,6.56,ES
88,Ilebo,-4.3167,20.5833,26.95,26.95,26.95,86,99,0.87,CD
89,Port Elizabeth,-33.918,25.5701,24.06,23.94,24.06,58,5,1.79,ZA
90,Sambava,-14.2667,50.1667,28.22,28.22,28.22,67,14,4.38,MG
91,Hong Kong,22.2855,114.1577,20.21,19.42,19.78,61,100,5.81,HK
92,Porto-Novo,6.4965,2.6036,33.97,33.97,33.97,40,5,3.84,BJ
93,Lüderitz,-26.6481,15.1594,23.41,23.41,23.41,53,0,3.62,NA
94,Cabedelo,-6.9811,-34.8339,30.37,30.37,30.37,63,10,4.25,BR
95,Honiara,-9.4333,159.95,25.55,25.55,25.55,89,98,0.82,SB
96,Umluj,25.0213,37.2685,23.72,23.72,23.72,35,5,4.38,SA
97,Arraial do Cabo,-22.9661,-42.0278,20.92,20.92,20.92,94,100,6.69,BR
98,Clonmel,52.355,-7.7039,9.98,7.93,8.8,78,6,9.59,IE
99,Portland,45.5234,-122.6762,8.12,5.31,6.57,89,100,3.58,US
100,Baykit,61.67,96.37,-19.04,-19.04,-19.04,96,99,2.33,RU
101,Aden,12.7794,45.0367,26.14,26.14,26.14,66,6,4.11,YE
102,Cherskiy,68.75,161.3,-33.94,-33.94,-33.94,96,100,1.38,RU
103,Bathsheba,13.2167,-59.5167,28.34,28.34,28.34,74,40,9.26,BB
104,Kavieng,-2.5744,150.7967,27.55,27.55,27.55,75,13,1.02,PG
105,Andra,62.5147,65.8878,-25.68,-25.68,-25.68,92,99,5.12,RU
106,Makakilo City,21.3469,-158.0858,22.05,17.18,18.59,89,0,3.09,US
107,Abu Dhabi,24.4667,54.3667,19.98,19.98,19.98,84,81,8.71,AE
108,Provideniya,64.3833,-173.3,-17.91,-17.91,-17.91,96,33,3.37,RU
109,Iskateley,67.6803,53.1512,-34.23,-34.23,-34.23,97,10,3.14,RU
110,Husavik,66.0449,-17.3389,-2.84,-2.84,-2.84,90,100,1.89,IS
111,Agirish,61.9247,63.0231,-25.3,-25.3,-25.3,95,100,5.0,RU
112,Eyl,7.9803,49.8164,27.48,27.48,27.48,60,1,9.97,SO
113,Upernavik,72.7868,-56.1549,-25.98,-25.98,-25.98,85,38,4.35,GL
114,Esperance,-33.8667,121.9,17.04,17.04,17.04,63,100,3.78,AU
115,Antofagasta,-23.65,-70.4,22.89,22.89,22.89,57,0,3.04,CL
116,Kaitangata,-46.2817,169.8464,9.9,9.9,9.9,83,4,3.8,NZ
117,Avarua,-21.2078,-159.775,21.03,21.03,21.03,94,100,1.03,CK
118,El Copé,8.6167,-80.6,20.18,20.18,20.18,86,33,2.09,PA
119,Manggar,-2.8833,108.2667,26.56,26.56,26.56,83,99,1.68,ID
120,La Ronge,55.1001,-105.2842,-13.42,-13.42,-13.42,96,26,1.82,CA
121,Bengkulu,-3.8004,102.2655,24.62,24.62,24.62,89,81,3.03,ID
122,Olafsvik,64.8945,-23.7142,2.56,2.56,2.56,79,100,13.47,IS
123,Geraldton,-28.7667,114.6,20.23,20.23,20.23,73,0,9.77,AU
124,Hithadhoo,-0.6,73.0833,27.5,27.5,27.5,76,70,4.46,MV
125,Benjamín Aceval,-24.9667,-57.5667,29.08,29.08,29.08,44,0,3.22,PY
126,Morant Bay,17.8815,-76.4093,25.79,25.39,25.79,77,5,3.27,JM
127,Constitución,-35.3333,-72.4167,18.78,18.78,18.78,69,0,1.23,CL
128,Nísia Floresta,-6.0911,-35.2086,30.45,30.45,30.45,48,54,5.31,BR
129,Egvekinot,66.3167,-179.1667,-23.32,-23.32,-23.32,90,86,3.35,RU
130,Namatanai,-3.6667,152.4333,26.51,26.51,26.51,81,86,1.4,PG
131,Curitibanos,-27.2828,-50.5844,19.08,19.08,19.08,54,0,3.24,BR
132,Eureka,40.8021,-124.1637,9.34,8.19,8.87,91,100,4.47,US
133,Faanui,-16.4833,-151.75,26.41,26.41,26.41,73,3,1.29,PF
134,Viedma,-40.8135,-62.9967,33.92,33.92,33.92,18,50,10.81,AR
135,Wuda,39.4994,106.7117,0.89,0.89,0.89,25,11,2.96,CN
136,Guerrero Negro,27.9769,-114.0611,13.4,13.4,13.4,58,0,2.26,MX
137,Kamaishi,39.2667,141.8833,1.8,1.8,1.8,94,100,1.6,JP
138,Coyhaique,-45.5752,-72.0662,18.34,15.97,15.97,72,100,2.57,CL
139,Mogadishu,2.0371,45.3438,27.43,27.43,27.43,75,98,10.06,SO
140,Burnie,-41.0667,145.9167,14.78,14.78,14.78,88,42,3.6,AU
141,Salé,34.0389,-6.8166,18.69,17.08,18.11,68,40,2.06,MA
142,Amarillo,35.222,-101.8313,-0.42,-3.28,-1.49,71,0,5.66,US
143,Bilibino,68.0546,166.4372,-23.31,-23.31,-23.31,99,100,0.16,RU
144,Maniitsoq,65.4167,-52.9,-6.76,-6.76,-6.76,76,100,3.41,GL
145,Codrington,-38.2667,141.9667,21.44,21.44,21.44,44,0,6.23,AU
146,Zhezkazgan,47.8043,67.7144,-3.01,-3.01,-3.01,86,100,3.0,KZ
147,Margate,51.3813,1.3862,10.49,9.83,10.21,83,100,5.36,GB
148,Torbay,47.6666,-52.7314,-0.79,-2.13,-1.5,86,100,3.13,CA
149,Kiryat Gat,31.61,34.7642,18.38,16.71,17.08,100,89,2.59,IL
150,Touros,-5.1989,-35.4608,29.56,29.56,29.56,60,100,6.27,BR
151,Haines Junction,60.7522,-137.5108,-13.33,-13.33,-13.33,98,100,0.59,CA
152,Majene,-3.5403,118.9707,26.06,26.06,26.06,86,100,2.66,ID
153,Rach Gia,10.0167,105.0833,22.68,22.68,22.68,74,100,6.63,VN
154,Liberal,37.0431,-100.921,-2.42,-4.92,-4.92,86,0,5.66,US
155,Havelock,34.8791,-76.9013,6.63,2.98,4.44,86,0,3.09,US
156,Manta,-0.95,-80.7333,23.88,23.88,23.88,83,100,1.54,EC
157,Bac Lieu,9.285,105.7244,22.72,22.72,22.72,83,100,4.42,VN
158,College,64.8569,-147.8028,-15.23,-17.01,-16.08,85,100,0.0,US
159,Okakarara,-20.5833,17.4333,33.29,33.29,33.29,13,43,2.78,NA
160,Volchansk,59.9378,60.081,-24.47,-24.47,-24.47,94,100,5.56,RU
161,Rapid Valley,44.0625,-103.1463,-0.76,-10.23,-7.0,77,75,3.6,US
162,Changji,44.0167,87.3167,-6.56,-6.56,-6.56,86,90,1.0,CN
163,Monmouth,40.3001,-74.1663,4.43,2.12,3.11,78,100,3.6,US
164,Hasaki,35.7333,140.8333,3.45,2.22,2.22,69,99,2.48,JP
165,Yulara,-25.2406,130.9889,16.96,16.96,16.96,89,100,9.12,AU
166,Motygino,58.1831,94.7592,-27.53,-27.53,-27.53,100,100,0.91,RU
167,Ayagoz,47.9714,80.4392,-2.82,-2.82,-2.82,97,100,4.68,KZ
168,Mehamn,71.0357,27.8492,-7.03,-7.03,-7.03,68,6,10.29,NO
169,Hwange,-18.3693,26.5019,26.78,26.78,26.78,67,75,2.68,ZW
170,Khatanga,71.9667,102.5,-36.11,-36.11,-36.11,98,100,1.97,RU
171,Orcopampa,-15.2661,-72.3417,9.12,9.12,9.12,77,99,2.87,PE
172,Karratha,-20.7377,116.8463,26.79,26.79,26.79,73,31,11.32,AU
173,Newport,51.5877,-2.9984,12.68,9.98,11.15,85,81,9.48,GB
174,Muli,2.9167,73.5667,26.69,26.69,26.69,81,26,6.91,MV
175,Bredasdorp,-34.5322,20.0403,23.99,23.99,23.99,54,59,7.23,ZA
176,Palauig,15.435,119.9045,25.59,25.59,25.59,75,11,2.34,PH
177,Ribeira Grande,38.5167,-28.7,17.65,17.22,17.22,94,75,8.23,PT
178,Madang,-5.2246,145.7966,25.01,25.01,25.01,91,100,3.35,PG
179,Meulaboh,4.1363,96.1285,24.7,24.7,24.7,84,67,0.92,ID
180,Caravelas,-17.7125,-39.2481,29.16,29.16,29.16,63,100,2.32,BR
181,Shakawe,-18.3667,21.85,34.34,34.34,34.34,15,90,3.59,BW
182,Burns Lake,54.2331,-125.7533,-5.42,-5.42,-5.42,99,100,1.2,CA
183,Beloha,-25.1667,45.05,28.85,28.85,28.85,63,73,4.31,MG
184,Sardārshahr,28.4333,74.4833,16.61,16.61,16.61,11,100,3.39,IN
185,Port-Gentil,-0.7193,8.7815,27.98,27.98,27.98,78,75,5.66,GA
186,Lüshunkou,38.8,121.2667,-3.88,-3.88,-3.88,52,6,1.88,CN
187,Kisangani,0.5167,25.2,36.31,36.31,36.31,21,45,1.17,CD
188,Sabha,27.0377,14.4283,17.91,17.91,17.91,28,0,1.3,LY
189,Lagoa,39.05,-27.9833,16.35,16.35,16.35,90,99,11.78,PT
190,Evensk,61.95,159.2333,-27.14,-27.14,-27.14,81,13,2.8,RU
191,Sherpur,25.0188,90.0175,19.24,19.24,19.24,42,0,3.38,BD
192,Yamada,39.4667,141.95,1.44,1.44,1.44,93,100,1.29,JP
193,Poum,-20.2333,164.0167,27.73,27.73,27.73,83,100,7.17,NC
194,Muhos,64.808,25.9931,-12.84,-13.12,-13.12,91,100,3.4,FI
195,Longyearbyen,78.2186,15.6401,-3.09,-3.09,-3.09,59,75,5.66,SJ
196,Termoli,41.9888,14.9895,13.21,12.54,13.21,73,6,2.18,IT
197,Shīeli,44.1667,66.75,6.84,6.84,6.84,80,86,7.23,KZ
198,Camacha,33.0833,-16.3333,18.68,18.68,18.68,68,20,3.6,PT
199,Craig,40.5153,-107.5464,-2.21,-4.03,-4.03,86,100,0.0,US
200,Saint-Philippe,-21.3585,55.7679,28.77,28.77,28.77,80,49,5.55,RE
201,Saint Anthony,45.0205,-93.218,-17.47,-22.73,-19.54,83,0,1.54,US
202,Vila Franca do Campo,37.7167,-25.4333,16.23,16.23,16.23,92,99,6.43,PT
203,Charlottetown,46.2352,-63.1267,-1.91,-2.9,-2.08,75,90,1.79,CA
204,Vitim,59.4511,112.5578,-12.62,-12.62,-12.62,96,100,1.84,RU
205,Rizhao,35.4275,119.4553,4.85,4.85,4.85,69,0,2.65,CN
206,Penalva,-3.2942,-45.1736,27.97,27.97,27.97,69,100,1.48,BR
207,George Town,5.4112,100.3354,26.96,26.64,26.96,74,20,1.54,MY
208,Fasa,28.9383,53.6482,11.11,11.11,11.11,49,8,3.52,IR
209,Ponta do Sol,32.6667,-17.1,21.35,20.62,20.69,69,60,2.73,PT
210,Philadelphia,39.9523,-75.1638,4.94,2.78,4.08,73,75,5.66,US
211,Paamiut,61.994,-49.6678,-5.02,-5.02,-5.02,61,100,4.45,GL
212,Ukiah,39.1502,-123.2078,9.25,7.58,8.71,90,100,5.14,US
213,Clyde River,70.4692,-68.5914,-32.27,-32.27,-32.27,92,20,1.17,CA
214,Severo-Kuril'sk,50.6789,156.125,-5.05,-5.05,-5.05,81,55,5.6,RU
215,East London,-33.0153,27.9116,22.1,22.1,22.1,62,2,4.6,ZA
216,Mariestad,58.7097,13.8237,3.26,1.95,2.03,100,100,3.96,SE
217,Porto Velho,-8.7619,-63.9039,23.03,23.03,23.03,94,75,0.0,BR
218,Pingliang,35.5392,106.6861,3.59,3.59,3.59,34,0,1.54,CN
219,Sept-Îles,50.2001,-66.3821,-7.19,-7.19,-7.19,91,100,2.44,CA
220,Alad,12.6168,122.2475,26.13,26.13,26.13,78,100,8.72,PH
221,Telde,27.9924,-15.4192,21.69,19.58,19.85,64,20,5.14,ES
222,Airai,-8.9266,125.4092,16.35,16.35,16.35,84,99,1.06,TL
223,Vestmannaeyjar,63.4427,-20.2734,1.55,1.55,1.55,80,75,4.12,IS
224,Lumberton,34.6182,-79.0086,3.99,2.0,3.87,75,0,2.06,US
225,Vardø,70.3705,31.1107,-8.01,-8.01,-8.01,79,100,6.69,NO
226,Bluff,-46.6,168.3333,11.2,11.2,11.2,77,0,7.84,NZ
227,Qinhuangdao,39.9317,119.5883,-0.78,-0.78,-0.78,57,15,0.59,CN
228,Banda Aceh,5.5577,95.3222,25.85,25.85,25.85,81,100,3.07,ID
229,Saint-Leu,-21.15,55.2833,28.48,26.29,28.31,76,29,0.63,RE
230,Adré,13.4667,22.2,28.54,28.54,28.54,13,2,2.74,TD
231,Chachoengsao,13.6167,101.4167,27.55,25.61,26.5,48,93,4.54,TH
232,Butembo,0.15,29.2833,25.72,25.72,25.72,31,58,1.98,CD
233,Halifax,44.6453,-63.5724,-0.37,-2.39,-1.06,95,91,0.89,CA
234,Aasiaat,68.7098,-52.8699,-18.88,-18.88,-18.88,91,97,1.75,GL
235,Mīrābād,30.4362,61.8383,19.93,19.93,19.93,42,100,1.73,AF
236,Kindu,-2.95,25.95,31.38,31.38,31.38,44,82,1.15,CD
237,Palu,-0.8917,119.8707,25.32,25.32,25.32,95,100,0.46,ID
238,Leningradskiy,69.3833,178.4167,-23.73,-23.73,-23.73,98,100,2.25,RU
239,Artyom,40.4723,50.333,8.08,8.08,8.08,81,28,11.65,AZ
240,Córdoba,-31.4135,-64.1811,30.47,29.44,30.47,35,0,4.63,AR
241,Poya,-21.35,165.15,26.16,26.16,26.16,89,100,2.65,NC
242,Necochea,-38.5473,-58.7368,27.7,27.7,27.7,42,90,7.01,AR
243,Payo,-3.7508,103.6372,23.59,23.59,23.59,94,89,0.81,ID
244,Comodoro Rivadavia,-45.8667,-67.5,25.92,25.92,25.92,27,0,8.23,AR
245,Coari,-4.085,-63.1414,24.22,24.22,24.22,94,98,0.89,BR
246,Waddān,29.1614,16.139,18.08,18.08,18.08,31,74,0.67,LY
247,Conceição do Araguaia,-8.2578,-49.2647,22.39,22.39,22.39,91,100,1.29,BR
248,Ilhabela,-23.7781,-45.3581,21.3,21.3,21.3,85,100,0.9,BR
249,Worthington,40.0931,-83.018,-0.14,-2.73,-1.51,87,100,0.0,US
250,Sibolga,1.7427,98.7792,24.16,24.16,24.16,88,100,1.36,ID
251,Los Llanos de Aridane,28.6585,-17.9182,19.86,17.85,17.85,81,20,3.13,ES
252,São Filipe,14.8961,-24.4956,23.71,23.71,23.71,63,99,4.33,CV
253,Montluçon,46.3333,2.6,13.72,13.72,13.72,55,100,1.79,FR
254,Gizo Government Station,-8.103,156.8419,28.23,28.23,28.23,78,100,3.9,SB
255,Mathathane,-22.2687,28.7495,21.3,21.3,21.3,64,93,6.69,BW
256,Champerico,14.3,-91.9167,22.3,22.3,22.3,66,1,2.22,GT
257,Imeni Poliny Osipenko,52.4201,136.4853,-27.62,-27.62,-27.62,100,100,1.16,RU
258,Puerto Escondido,15.85,-97.0667,21.46,21.46,21.46,83,0,3.6,MX
259,Alta Floresta,-9.8756,-56.0861,21.21,21.21,21.21,99,100,0.62,BR
260,Todos Santos,23.45,-110.2167,18.67,18.67,18.67,47,0,1.32,MX
261,Talnakh,69.4865,88.3972,-42.11,-42.11,-42.11,95,73,1.34,RU
262,Prince Rupert,54.3161,-130.3201,5.0,5.0,5.0,84,100,5.4,CA
263,Sharjah city,25.3573,55.4033,18.16,17.99,18.16,88,40,4.63,AE
264,Okhotsk,59.3833,143.3,-29.03,-29.03,-29.03,84,17,5.42,RU
265,Cadillac,44.2519,-85.4012,-3.05,-3.45,-3.05,86,100,3.6,US
266,Cidreira,-30.1811,-50.2056,23.99,23.99,23.99,62,81,4.74,BR
267,Cabinda,-5.55,12.2,28.43,28.43,28.43,76,91,3.74,AO
268,Vanimo,-2.6741,141.3028,25.85,25.85,25.85,87,97,1.32,PG
269,Valdez,1.2492,-78.9831,22.77,22.77,22.77,89,92,2.94,EC
270,Kruisfontein,-34.0033,24.7314,22.71,22.71,22.71,51,3,5.99,ZA
271,Mujiayingzi,42.1167,118.7833,-3.44,-3.44,-3.44,37,100,2.56,CN
272,Balikpapan,-1.2675,116.8289,25.55,25.55,25.55,94,20,0.0,ID
273,Padang,-0.9492,100.3543,25.03,25.03,25.03,84,100,0.59,ID
274,Kishanganj,26.1167,87.9333,18.34,18.34,18.34,40,0,3.76,IN
275,Kavaratti,10.5669,72.642,27.48,27.48,27.48,63,85,3.26,IN
276,Aklavik,68.2191,-135.0107,-24.31,-24.31,-24.31,98,100,0.94,CA
277,Padre Paraíso,-17.0742,-41.4844,23.92,23.92,23.92,84,100,0.58,BR
278,Belmonte,-15.8631,-38.8828,28.47,28.47,28.47,68,100,2.94,BR
279,Xichang,27.8964,102.2634,9.79,9.79,9.79,65,7,1.03,CN
280,Acajutla,13.5928,-89.8275,23.7,23.7,23.7,60,4,3.41,SV
281,Vilyuysk,63.7553,121.6247,-29.17,-29.17,-29.17,98,100,2.88,RU
282,Metu,8.3,35.5833,26.54,26.54,26.54,30,37,0.85,ET
283,Rawalpindi,33.6007,73.0679,13.46,13.46,13.46,54,100,1.54,PK
284,Freeport,40.6576,-73.5832,4.54,0.26,2.45,78,0,4.63,US
285,Ochamchira,42.7121,41.4721,6.95,6.95,6.95,72,100,5.93,GE
286,Boa Vista,2.8197,-60.6733,26.99,26.99,26.99,74,75,4.12,BR
287,Hilo,19.7297,-155.09,20.69,18.3,19.09,88,20,2.57,US
288,Deer Lake,49.1667,-57.4316,-5.77,-5.77,-5.77,79,99,0.32,CA
289,Lata,40.1629,-8.3327,14.49,14.34,14.34,96,100,3.9,PT
290,Pandan,14.0453,124.1694,25.22,25.22,25.22,73,100,7.2,PH
291,Matamoros,25.5333,-103.25,13.06,12.28,12.28,38,0,0.0,MX
292,LaBelle,26.7617,-81.4384,11.03,8.04,9.77,56,0,2.72,US
293,Yanam,16.7333,82.2167,21.25,21.25,21.25,78,0,2.18,IN
294,Elizabeth City,36.2946,-76.2511,3.01,2.0,2.33,93,0,2.06,US
295,Tabas,33.5959,56.9244,12.81,12.81,12.81,43,0,0.67,IR
296,Khandyga,62.6667,135.6,-44.69,-44.69,-44.69,100,84,0.4,RU
297,Warsaw,52.2298,21.0118,6.88,3.9,6.21,93,40,2.06,PL
298,Saldanha,-33.0117,17.9442,20.84,20.84,20.84,60,36,5.83,ZA
299,Sibu,2.3,111.8167,24.42,24.42,24.42,92,100,1.17,MY
300,Puerto Baquerizo Moreno,-0.9,-89.6,22.43,22.43,22.43,86,19,3.25,EC
301,Nazarovo,56.0064,90.3914,-10.65,-10.65,-10.65,96,100,1.89,RU
302,Ixtapa,20.7,-105.2,18.46,16.57,16.57,94,0,1.03,MX
303,Mergen,49.1833,125.2167,-24.2,-24.2,-24.2,99,68,2.54,CN
304,Green River,41.5286,-109.4662,-4.78,-11.12,-11.12,52,72,0.45,US
305,Sittwe,20.15,92.9,21.81,21.81,21.81,74,0,5.33,MM
306,Kishtwār,33.3167,75.7667,10.13,10.13,10.13,52,100,0.09,IN
307,Aborlan,9.4352,118.5492,25.44,25.44,25.44,88,57,4.13,PH
308,Bell Ville,-32.6259,-62.6887,31.48,29.89,29.89,20,6,6.01,AR
309,Lima,-12.0432,-77.0282,21.06,19.14,21.06,81,40,4.12,PE
310,Fortuna,40.5982,-124.1573,9.19,8.32,8.64,95,100,8.75,US
311,Pevek,69.7008,170.3133,-25.11,-25.11,-25.11,95,100,0.75,RU
312,Hamilton,39.1834,-84.5333,-1.15,-5.95,-3.07,95,100,0.0,US
313,Nador,35.174,-2.9287,18.14,18.14,18.14,59,20,4.63,MA
314,Arica,-18.475,-70.3042,22.75,22.13,22.13,64,0,1.54,CL
315,Huilong,31.8111,121.655,6.63,6.63,6.63,62,0,4.4,CN
316,San Quintín,30.4833,-115.95,12.72,12.72,12.72,66,89,0.59,MX
317,Kamsack,51.5667,-101.9009,-11.33,-11.33,-11.33,90,78,3.84,CA
318,Rovaniemi,66.5,25.7167,-15.33,-15.33,-15.33,85,0,3.6,FI
319,Adrar,20.5022,-10.0711,21.73,21.73,21.73,16,100,7.08,MR
320,Foz,43.5692,-7.2544,13.47,13.47,13.47,85,100,4.81,ES
321,Qujing,25.4833,103.7833,5.92,5.92,5.92,62,0,2.43,CN
322,Bouna,9.2667,-3.0,36.1,36.1,36.1,14,28,3.91,CI
323,Port Lincoln,-34.7333,135.8667,20.03,20.03,20.03,69,0,3.85,AU
324,Dombarovskiy,50.7587,59.5386,-8.06,-8.06,-8.06,95,100,5.95,RU
325,Nikšić,42.7731,18.9445,13.15,10.92,13.15,51,5,0.91,ME
326,Saurimo,-9.6608,20.3916,23.01,23.01,23.01,72,99,1.77,AO
327,Sisimiut,66.9395,-53.6735,-10.8,-10.8,-10.8,87,98,2.95,GL
328,Muravlenko,63.7898,74.523,-35.4,-35.4,-35.4,84,69,6.05,RU
329,Ormara,25.2088,64.6357,21.57,21.57,21.57,48,0,1.39,PK
330,Grindavik,63.8424,-22.4338,0.26,0.26,0.26,74,75,8.75,IS
331,Taoudenni,22.6783,-3.9836,22.44,22.44,22.44,15,100,6.92,ML
332,Pangai,-19.8,-174.35,27.35,27.35,27.35,80,100,2.33,TO
333,Alice Springs,-23.7,133.8833,24.75,24.75,24.75,36,75,4.63,AU
334,Mirny,62.5353,113.9611,-24.19,-24.19,-24.19,99,100,0.1,RU
335,Micco,27.8806,-80.5003,15.01,9.04,13.12,85,0,2.87,US
336,Chingirlau,51.095,54.0814,-18.16,-18.16,-18.16,87,100,7.0,KZ
337,Mariehamn,60.0973,19.9348,-1.08,-1.08,-1.08,93,100,8.75,AX
338,Ruwi,23.5996,58.5507,24.83,24.83,24.83,62,1,5.02,OM
339,Nome,64.5011,-165.4064,-10.96,-12.16,-10.96,100,100,0.0,US
340,Muhafazat Lahij,13.1667,44.5833,27.43,27.43,27.43,44,7,5.18,YE
341,Buala,-8.145,159.5921,27.39,27.39,27.39,79,64,2.49,SB
342,Graham,47.0529,-122.2943,6.99,5.18,6.11,93,40,0.89,US
343,Alofi,-19.0595,-169.9187,25.79,25.79,25.79,89,100,9.96,NU
344,Ionia,42.9873,-85.0711,0.01,-1.58,-0.81,85,6,2.82,US
345,Paso de Carrasco,-34.8603,-56.0522,27.25,25.53,25.53,44,1,5.12,UY
346,Biltine,14.5333,20.9167,30.99,30.99,30.99,8,7,1.84,TD
347,Ust'-Ilimsk,58.0006,102.6619,-16.61,-16.61,-16.61,92,100,4.41,RU
348,Varca,15.2167,73.9167,28.0,28.0,28.0,74,9,4.12,IN
349,Chifeng,42.2683,118.9636,-3.67,-3.67,-3.67,37,100,2.22,CN
350,Grand Forks,47.9417,-97.4337,-16.04,-19.01,-16.04,85,100,4.12,US
351,Bouloupari,-21.8667,166.05,24.95,24.95,24.95,89,100,0.76,NC
352,Anadyr,64.75,177.4833,-25.22,-25.22,-25.22,100,100,1.21,RU
353,Babayurt,43.6002,46.7789,0.79,0.79,0.79,53,98,7.2,RU
354,Praia,14.9215,-23.5087,24.3,24.3,24.3,64,20,8.75,CV
355,Krasnosel'kup,65.7,82.4667,-40.94,-40.94,-40.94,95,6,3.32,RU
356,Chenzhou,25.8,113.0333,13.02,13.02,13.02,54,0,1.06,CN
357,Inírida,3.8653,-67.9239,22.82,22.82,22.82,98,100,1.28,CO
358,Fort Nelson,58.8053,-122.7002,-18.36,-18.36,-18.36,90,78,0.5,CA
359,Port Blair,11.6667,92.75,26.59,26.59,26.59,71,6,4.79,IN
360,Bonavista,48.6499,-53.1147,-2.46,-2.46,-2.46,73,100,2.74,CA
361,Merrill,45.1805,-89.6835,-7.47,-11.9,-11.18,92,100,0.0,US
362,Vao,-22.6667,167.4833,25.4,25.4,25.4,89,100,4.34,NC
363,Aleksandrov Gay,50.147,48.5704,-16.22,-16.22,-16.22,77,23,7.44,RU
364,Sergeevka,53.88,67.4158,-6.96,-6.96,-6.96,93,100,5.29,KZ
365,Whitianga,-36.8333,175.7,18.4,18.4,18.4,90,100,1.04,NZ
366,Acapulco de Juárez,16.8634,-99.8901,22.9,22.9,22.9,83,0,2.57,MX
367,Roald,62.5833,6.1333,9.51,7.08,7.08,53,75,7.2,NO
368,Buraidah,26.326,43.975,15.21,15.21,15.21,33,0,1.34,SA
369,Isangel,-19.55,169.2667,26.5,26.5,26.5,89,100,7.43,VU
370,Nova Olímpia,-14.7972,-57.2881,27.66,27.66,27.66,70,100,1.23,BR
371,Fort Beaufort,-32.7748,26.6338,23.8,23.8,23.8,46,0,4.68,ZA
372,Sonoita,31.85,-112.8333,10.52,10.52,10.52,54,69,2.98,MX
373,Saint-Louis,16.3333,-15.0,30.2,30.2,30.2,11,100,5.33,SN
374,Tiznit Province,29.5833,-9.5,18.01,18.01,18.01,31,6,2.97,MA
375,Merauke,-8.4667,140.3333,26.46,26.46,26.46,84,100,2.47,ID
376,Cañon City,38.441,-105.2424,1.4,-3.32,-0.89,56,0,3.58,US
377,Krasnorechenskiy,44.6265,135.3532,-18.8,-18.8,-18.8,96,15,1.86,RU
378,Ordzhonīkīdze,52.4411,61.7408,-13.23,-13.23,-13.23,91,100,4.39,KZ
379,Bambous Virieux,-20.3428,57.7575,28.45,28.14,28.14,65,75,5.66,MU
380,Uíge,-7.6087,15.0613,24.14,24.14,24.14,87,100,0.46,AO
381,Gachsaran,30.3586,50.7981,12.11,12.11,12.11,67,48,2.63,IR
382,Lengshuitan,26.4111,111.5956,13.46,13.46,13.46,50,0,0.41,CN
383,Omboué,-1.5746,9.2618,27.76,27.76,27.76,72,100,4.18,GA
384,Nioro,13.35,-15.75,33.8,33.8,33.8,10,71,5.35,GM
385,Aksay,47.26,39.87,-11.88,-11.88,-11.88,51,5,3.82,RU
386,Srednekolymsk,67.45,153.6833,-39.85,-39.85,-39.85,97,100,2.32,RU
387,Aktash,50.3,87.7333,-19.28,-19.28,-19.28,94,21,2.04,RU
388,Maitum,6.0392,124.4986,25.3,25.3,25.3,83,100,0.95,PH
389,Natal,-5.795,-35.2094,30.36,30.36,30.36,58,40,6.69,BR
390,Sovetskiy,61.3614,63.5842,-23.77,-23.77,-23.77,94,100,5.93,RU
391,Dubuque,42.4833,-90.8668,-8.67,-10.07,-9.3,79,100,3.6,US
392,Laguna,38.421,-121.4238,11.71,9.05,10.25,84,100,6.17,US
393,Yichun,47.7,128.9,-23.18,-23.18,-23.18,99,51,0.99,CN
394,Grand Gaube,-20.0064,57.6608,28.54,28.22,28.54,63,99,3.13,MU
395,Stolbishche,55.6468,49.216,-26.42,-26.75,-26.42,62,0,7.15,RU
396,Ambilobe,-13.2,49.05,27.0,27.0,27.0,78,96,2.07,MG
397,Peniche,39.3558,-9.3811,16.83,15.81,16.08,92,100,10.57,PT
398,Tommot,58.9564,126.2925,-24.87,-24.87,-24.87,99,100,0.99,RU
399,Winneba,5.3511,-0.6231,30.43,30.43,30.43,58,28,3.88,GH
400,El Alto,-4.2714,-81.2147,20.81,20.81,20.81,68,100,3.25,PE
401,Ballina,-28.8667,153.5667,21.55,21.12,21.12,94,100,6.85,AU
402,Jaora,23.6333,75.1333,18.67,18.67,18.67,49,0,3.35,IN
403,Batagay-Alyta,67.8006,130.4114,-43.26,-43.26,-43.26,96,8,1.81,RU
404,Kaeo,-35.1,173.7833,17.36,17.36,17.36,94,15,1.38,NZ
405,Dafeng,23.4517,108.5881,18.07,18.07,18.07,38,7,0.81,CN
406,Vung Tau,10.346,107.0843,24.28,24.28,24.28,78,100,2.26,VN
407,Soloneshnoye,51.6544,84.3197,-8.2,-8.2,-8.2,92,100,2.06,RU
408,Mitsamiouli,-11.3847,43.2844,27.97,27.97,27.97,73,45,2.14,KM
409,Arman',59.7,150.1667,-18.8,-18.8,-18.8,93,100,3.55,RU
410,Petropavlovsk-Kamchatskiy,53.0452,158.6483,-16.67,-16.67,-16.67,82,6,5.69,RU
411,Urubamba,-13.3047,-72.1158,13.5,13.5,13.5,76,89,1.41,PE
412,Emilio Carranza,19.9711,-96.6114,20.21,20.21,20.21,80,0,1.64,MX
413,Ahipara,-35.1667,173.1667,17.89,17.89,17.89,95,13,0.17,NZ
414,Spencer,43.1414,-95.1444,-13.94,-16.27,-13.97,66,100,3.09,US
415,Gal'bshtadt,53.2264,78.9845,-7.45,-7.45,-7.45,91,84,6.53,RU
416,Białystok,53.1333,23.15,-2.79,-3.35,-3.27,92,94,3.13,PL
417,Mossamedes,-15.1961,12.1522,25.89,25.89,25.89,61,44,5.42,AO
418,Kampene,-3.6,26.6667,23.45,23.45,23.45,92,100,0.68,CD
419,Yining,29.0361,114.5636,11.06,11.06,11.06,60,0,1.34,CN
420,Nainpur,22.4333,80.1167,15.43,15.43,15.43,26,0,3.5,IN
421,Puerto Cabello,10.4731,-68.0125,28.75,28.75,28.75,83,38,2.71,VE
422,Ozernovskiy,51.5,156.5167,-8.86,-8.86,-8.86,59,6,3.74,RU
423,Rosário do Sul,-30.2583,-54.9142,27.77,27.77,27.77,39,0,5.33,BR
424,Mitú,1.1983,-70.1733,23.01,23.01,23.01,91,93,1.48,CO
425,Rosetta,31.4044,30.4164,18.6,18.6,18.6,60,49,3.42,EG
426,Mount Isa,-20.7333,139.5,28.87,28.87,28.87,65,40,4.63,AU
427,Shumyachi,53.8583,32.4242,-12.91,-12.91,-12.91,79,69,1.29,RU
428,Sakakah,29.9697,40.2064,14.78,14.78,14.78,45,3,2.37,SA
429,Usvyaty,55.7456,30.7533,-11.96,-11.96,-11.96,63,85,1.59,RU
430,Carandaí,-20.9536,-43.8064,15.07,15.07,15.07,99,100,1.73,BR
431,Saint George,37.1041,-113.5841,1.33,1.33,1.33,93,0,0.0,US
432,Cabo San Lucas,22.8909,-109.9124,19.73,16.61,18.52,68,0,1.54,MX
433,Mukhen,48.1,136.1,-21.44,-21.44,-21.44,98,29,1.24,RU
434,São João da Barra,-21.6403,-41.0511,24.05,24.05,24.05,93,100,4.29,BR
435,Teluknaga,-6.0989,106.6381,28.99,27.78,27.89,78,20,5.66,ID
436,Vágur,61.4732,-6.8119,6.03,6.03,6.03,79,100,5.69,FO
437,Yellandu,17.6,80.3333,22.36,22.36,22.36,29,0,2.25,IN
438,Sibiti,-3.6819,13.3499,26.47,26.47,26.47,79,95,0.4,CG
439,Inuvik,68.3499,-133.7218,-23.31,-23.31,-23.31,98,100,0.98,CA
440,Klyuchevskiy,53.5317,119.4519,-27.66,-27.66,-27.66,99,24,1.39,RU
441,Sokoni,-6.4333,39.55,28.21,28.21,28.21,74,28,6.03,TZ
442,Rundu,-17.9333,19.7667,34.62,34.62,34.62,18,100,3.62,NA
443,Marabu,4.4148,114.0089,25.39,25.39,25.39,88,100,1.79,MY
444,Bilma,18.6853,12.9164,25.12,25.12,25.12,18,89,2.99,NE
445,Charter Township of Clinton,42.587,-82.9199,1.23,-0.89,0.21,88,100,3.09,US
446,Mareeba,-17.0,145.4333,23.02,22.4,23.01,97,100,0.66,AU
447,Bariloche,-41.1456,-71.3082,21.8,20.86,20.86,49,75,4.63,AR
448,Atbasar,51.8,68.3333,-1.12,-1.12,-1.12,86,100,9.6,KZ
449,Pāsighāt,28.0667,95.3333,16.74,16.74,16.74,44,0,2.2,IN
450,Zhigansk,66.7697,123.3711,-34.78,-34.78,-34.78,96,100,1.75,RU
451,Bowen,-20.0167,148.2333,26.4,26.4,26.4,78,42,5.65,AU
452,Ostrovnoy,68.0531,39.5131,-7.52,-7.52,-7.52,81,100,0.38,RU
453,Loukhi,66.0764,33.0381,-12.71,-12.71,-12.71,97,100,1.87,RU
454,Mmathubudukwane,-24.6,26.4333,31.26,31.26,31.26,29,16,1.98,BW
455,New Port Richey,28.2442,-82.7193,12.98,6.0,10.04,72,0,3.72,US
456,Manaure,11.7751,-72.4445,25.9,25.9,25.9,77,8,5.79,CO
457,Safi,32.2994,-9.2372,17.88,17.88,17.88,57,0,0.69,MA
458,Sheridan,44.8333,-106.9173,-0.38,-5.79,-5.77,73,0,0.0,US
459,Wukari,7.85,9.7833,36.4,36.4,36.4,13,25,5.25,NG
460,Pandua,23.0833,88.2833,17.53,17.53,17.53,39,0,3.29,IN
461,Sur,22.5667,59.5289,23.66,23.66,23.66,56,0,5.06,OM
462,Coquimbo,-29.9533,-71.3436,20.85,20.85,20.85,64,0,1.54,CL
463,Tezu,27.9167,96.1667,16.84,16.84,16.84,39,0,1.96,IN
464,Katobu,-4.9408,122.5276,25.01,25.01,25.01,87,100,0.12,ID
465,Ayan,56.45,138.1667,-18.31,-18.31,-18.31,83,100,1.47,RU
466,Huejúcar,22.35,-103.2167,9.25,9.25,9.25,51,0,1.05,MX
467,Keetmanshoop,-26.5833,18.1333,32.74,32.74,32.74,11,0,2.52,NA
468,Omsukchan,62.5333,155.8,-40.18,-40.18,-40.18,96,96,1.66,RU
469,Rexburg,43.826,-111.7897,-0.01,-1.27,-0.31,89,100,1.54,US
470,Cheremshan,54.6667,51.5,-28.83,-28.83,-28.83,99,21,3.12,RU
471,Bontang,0.1333,117.5,27.11,27.11,27.11,81,100,2.28,ID
472,Nanortalik,60.1432,-45.2371,-4.95,-4.95,-4.95,64,100,3.06,GL
473,Aktau,43.65,51.2,1.32,1.32,1.32,73,100,13.02,KZ
474,Hervey Bay,-25.2986,152.8535,23.47,23.47,23.47,74,3,6.0,AU
475,Gemeente Wageningen,51.9667,5.6667,12.41,11.03,11.8,67,100,7.72,NL
476,Xining,36.6167,101.7667,-0.92,-0.92,-0.92,19,12,1.27,CN
477,Massakory,12.996,15.7293,30.92,30.92,30.92,10,11,4.78,TD
478,Rørvik,64.8621,11.2373,1.06,-1.01,1.06,75,100,5.66,NO
479,Kurchum,48.5722,83.6542,-2.78,-2.78,-2.78,98,100,2.07,KZ
480,Broken Hill,-31.95,141.4333,26.77,26.77,26.77,25,0,4.12,AU
481,San Cristobal,7.7669,-72.225,20.1,20.1,20.1,77,33,0.74,VE
482,Tuatapere,-46.1333,167.6833,8.56,8.56,8.56,88,0,2.11,NZ
483,Henties Bay,-22.116,14.2845,20.86,20.86,20.86,67,1,5.31,NA
484,Iqaluit,63.7506,-68.5145,-25.64,-25.64,-25.64,94,100,4.6,CA
485,Santa Maria,-29.6842,-53.8069,27.15,27.15,27.15,39,0,3.91,BR
486,Verkhnevilyuysk,63.4453,120.3167,-27.75,-27.75,-27.75,99,100,1.65,RU
487,Concord,37.978,-122.0311,14.72,9.35,12.21,74,100,1.54,US
488,Yangi Marg`ilon,40.4272,71.7189,4.4,4.4,4.4,81,82,0.0,UZ
489,Dingle,10.9995,122.6711,23.47,23.47,23.47,91,100,3.59,PH
490,Wenling,28.3669,121.36,10.66,10.66,10.66,56,0,0.4,CN
491,Bay Roberts,47.5999,-53.2648,-0.37,-1.71,-0.95,82,100,2.24,CA
492,Kununurra,-15.7667,128.7333,26.99,26.99,26.99,89,54,3.09,AU
493,Nahrin,36.0649,69.1334,9.13,9.13,9.13,54,91,2.74,AF
494,Kaniama,-7.5667,24.1833,21.79,21.79,21.79,94,100,1.39,CD
495,Tokat,40.4167,36.5833,0.09,0.09,0.09,62,87,1.4,TR
496,Gönen,40.1049,27.654,12.48,12.48,12.48,55,2,2.6,TR
497,Sierra Vista,31.5545,-110.3037,8.9,4.25,5.53,66,0,2.57,US
498,Tena,-0.9833,-77.8167,20.09,20.09,20.09,93,100,0.57,EC
499,Luganville,-15.5333,167.1667,26.65,26.65,26.65,85,100,1.2,VU
500,Hofn,64.2539,-15.2082,-0.1,-0.1,-0.1,71,100,8.31,IS
501,Ust-Nera,64.5667,143.2,-36.08,-36.08,-36.08,99,100,1.31,RU
502,Tessalit,20.1986,1.0114,26.43,26.43,26.43,13,85,5.06,ML
503,Mahajanga,-15.7167,46.3167,30.01,30.01,30.01,70,20,5.14,MG
504,Province of Mantua,45.1667,10.7833,9.47,8.58,9.22,88,64,0.89,IT
505,Goya,-29.14,-59.2626,31.38,31.38,31.38,23,20,3.1,AR
506,Głogów,51.6636,16.0845,9.8,9.8,9.8,80,91,2.2,PL
507,Bonthe,7.5264,-12.505,32.83,32.83,32.83,39,26,2.11,SL
508,Caldas Novas,-17.7417,-48.625,20.31,20.31,20.31,94,100,1.33,BR
509,Jiaocheng,24.6774,116.1389,13.88,13.88,13.88,54,0,1.22,CN
510,‘Āhuimanu,21.4447,-157.8378,22.7,17.84,20.66,89,20,2.57,US
511,Aliaga,15.5167,120.8667,23.02,23.02,23.02,77,94,2.97,PH
512,Ol'ga,43.7444,135.2892,-14.56,-14.56,-14.56,91,44,2.35,RU
513,Ouadda,8.0777,22.4007,34.02,34.02,34.02,13,100,3.3,CF
514,Atherton,53.5237,-2.4935,11.5,9.66,10.69,79,100,2.24,GB
515,Kuusamo,65.9667,29.1833,-26.98,-26.98,-26.98,76,75,1.03,FI
516,Kristinestad,62.2743,21.376,-8.28,-8.28,-8.28,90,100,8.55,FI
517,São Miguel do Araguaia,-13.275,-50.1628,21.68,21.68,21.68,95,100,1.25,BR
518,Verkhoyansk,67.5447,133.385,-48.45,-48.45,-48.45,100,68,1.08,RU
519,Heihe,50.2441,127.4902,-24.78,-24.78,-24.78,98,84,1.12,CN
520,Swan River,52.1058,-101.2676,-7.73,-7.73,-7.73,83,100,4.91,CA
521,Paratinga,-12.6906,-43.1842,26.89,26.89,26.89,69,100,1.5,BR
522,Kargasok,59.0556,80.8572,-15.97,-15.97,-15.97,96,100,5.21,RU
523,Hambantota,6.1241,81.1185,26.19,26.19,26.19,100,40,3.09,LK
524,Jiblah,13.9216,44.1467,18.92,18.92,18.92,44,20,3.2,YE
525,Kuril'sk,45.2333,147.8833,-4.85,-4.85,-4.85,89,95,1.5,RU
526,Nouakchott,18.0858,-15.9785,25.96,25.96,25.96,26,100,6.64,MR
527,Naze,28.3667,129.4833,13.64,13.64,13.64,61,0,7.15,JP
528,Iracoubo,5.4802,-53.2011,24.4,24.4,24.4,90,100,4.71,GF
529,Sulangan,11.1373,123.7228,26.33,26.33,26.33,79,100,7.93,PH
530,Stepantsevo,56.1314,41.7032,-27.52,-27.52,-27.52,99,11,1.8,RU
531,Acaraú,-2.8856,-40.12,29.06,29.06,29.06,59,75,5.21,BR
532,Bollnäs,61.3482,16.3946,-0.83,-0.83,-0.83,96,100,3.08,SE
533,Pangnirtung,66.1451,-65.7125,-17.34,-17.34,-17.34,93,100,0.93,CA
534,Qingyang,37.4958,121.2581,2.33,2.33,2.33,54,0,2.19,CN
535,Chachapoyas,-6.2317,-77.869,12.97,12.97,12.97,91,100,0.6,PE
536,Oddur,4.1213,43.8894,33.23,33.23,33.23,22,3,6.74,SO
537,Mayor Pablo Lagerenza,-19.9309,-60.7718,29.77,29.77,29.77,44,15,2.25,PY
538,Coruripe,-10.1256,-36.1756,29.47,29.47,29.47,59,10,6.23,BR
539,Yinchuan,38.4681,106.2731,2.75,2.75,2.75,17,100,1.19,CN
540,Nishihara,26.1842,127.7558,15.6,10.81,14.17,67,20,6.69,JP
541,Mocuba,-16.8392,36.9856,30.9,30.9,30.9,60,100,2.61,MZ
542,Olinda,-8.0089,-34.8553,28.85,28.85,28.85,65,40,4.12,BR
543,Dandong,40.1292,124.3947,-10.81,-10.81,-10.81,89,13,1.65,CN
544,Chui,-33.6971,-53.4616,25.08,25.08,25.08,52,0,4.93,UY
545,Kirovskiy,45.0917,133.5136,-25.77,-25.77,-25.77,100,73,1.15,RU
546,Wagar,16.1525,36.2032,29.92,29.92,29.92,25,4,4.94,SD
547,Nhulunbuy,-12.2333,136.7667,26.34,26.34,26.34,89,100,5.14,AU
548,Umba,66.6871,34.3429,-18.65,-18.65,-18.65,98,43,2.4,RU
549,Soe,-9.8607,124.284,19.59,19.59,19.59,90,100,1.48,ID
550,Nishifukuma,33.7667,130.4667,9.0,5.72,7.89,50,12,5.88,JP
551,Noumea,-22.2763,166.4572,27.78,24.99,27.78,99,100,2.19,NC
552,Talara,-4.5772,-81.2719,22.42,22.42,22.42,68,0,9.77,PE
553,Hinganghāt,20.5667,78.8333,19.98,19.98,19.98,21,0,3.3,IN
554,Am Timan,11.0297,20.2827,32.58,32.58,32.58,13,99,3.15,TD
